[
 {
   "Name": "Killington Resort",
   "Timezone": "GMT - 5",
   "Country": "USA",
   "Latitude": 43.619801,
   "Longitude": -72.80271,
   "URL": "https://www.youtube.com/embed/omVjZZRsrPo"
 },
 {
   "Name": "Four Seasons Hotel Buenos Aires",
   "Timezone": "GMT - 4",
   "Country": "Argentina",
   "Latitude": -34.5905715,
   "Longitude": -58.3825741,
   "URL": "https://www.youtube.com/embed/if91GyWP3zQ"
 },
 {
   "Name": "GRU Airport Sao Paulo",
   "Timezone": "GMT - 3",
   "Country": "Brazil",
   "Latitude": -23.437795,
   "Longitude": -46.4813205,
   "URL": "https://www.youtube.com/embed/bmrq8lBr35I"
 },
 {
   "Name": "Brunel Holiday Park Dawlish",
   "Timezone": "GMT + 0",
   "Country": "UK",
   "Latitude": 50.58118,
   "Longitude": -3.46644,
   "URL": "https://www.youtube.com/embed/a6TNIniQw5Y"
 },
 {
   "Name": "Assisi-Basilica di San Francesco",
   "Timezone": "GMT + 2",
   "Country": "Italy",
   "Latitude": 43.0667,
   "Longitude": 12.6211,
   "URL": "https://www.youtube.com/embed/5ka3YhVZgME"
 },
 {
   "Name": "Prague Tram",
   "Timezone": "GMT + 1",
   "Country": "Prague",
   "Latitude": 50.0874654,
   "Longitude": 14.4212535,
   "URL": "https://www.mall.tv/embed/vlaky-a-tramvaje/mazacka-jizda-prahou?autoplay=true&c=1"
 },
 {
   "Name": "Kazan Russia",
   "Timezone": "GMT + 3",
   "Country": "Russia",
   "Latitude": 55.7823547,
   "Longitude": 49.1242266,
   "URL": "https://www.youtube.com/embed/LVHOEGyKkrw"
 },
 {
   "Name": "Beach Cam Maritius",
   "Timezone": "GMT + 4",
   "Country": "Maritius",
   "Latitude": -20.5123612,
   "Longitude": 57.473251,
   "URL": "https://www.youtube.com/embed/Nqm28breGxs"
 },
 {
   "Name": "Kazakhstan",
   "Timezone": "GMT + 6",
   "Country": "Kazakhstan",
   "Latitude": 51.1282205,
   "Longitude": 71.4306682,
   "URL": "https://www.youtube.com/embed/Rc2uhcrLqMI"
 },
 {
   "Name": "Jomsom Nepal",
   "Timezone": "GMT + 5.45",
   "Country": "Nepal",
   "Latitude": 28.7838097,
   "Longitude": 83.7304953,
   "URL": "https://www.youtube.com/embed/WgjLxP2sFLk"
 },
 {
   "Name": "Koh Samui",
   "Timezone": "GMT + 7",
   "Country": "Thailand",
   "Latitude": 9.444151,
   "Longitude": 99.960648,
   "URL": "https://www.youtube.com/embed/-vZOOe5dNOY"
 },
 {
   "Name": "Taiwan Road",
   "Timezone": "GMT + 8",
   "Country": "Taiwan",
   "Latitude": 23.9739374,
   "Longitude": 120.9820179,
   "URL": "https://www.youtube.com/embed/KucrVvJQj0k"
 },
 {
   "Name": "Mount Fuji",
   "Timezone": "GMT + 9",
   "Country": "Japan",
   "Latitude": 35.362799,
   "Longitude": 138.730781,
   "URL": "https://www.youtube.com/embed/WAyDRburhSY"
 },
 {
   "Name": "Santa Claus Village",
   "Timezone": "GMT + 2",
   "Country": "Finland",
   "Latitude": 66.54401398,
   "Longitude": 25.84724617,
   "URL": "https://www.youtube.com/embed/Cp4RRAEgpeU"
 },
 {
   "Name": "Madina",
   "Timezone": "GMT + 3",
   "Country": "Saudi Arabia",
   "Latitude": 24.470901,
   "Longitude": 39.612236,
   "URL": "https://www.youtube.com/embed/zBkm_sWf1F0"
 },
 {
   "Name": "Kenya River Wildlife",
   "Timezone": "GMT + 3",
   "Country": "Kenya",
   "Latitude": 0.2918,
   "Longitude": 36.8809,
   "URL": "https://www.youtube.com/embed/bGpNSsnSlfo"
 },
 {
   "Name": "Table Mountain",
   "Timezone": "GMT + 2",
   "Country": "South Africa",
   "Latitude": -33.962864,
   "Longitude": 18.409834,
   "URL": "https://www.youtube.com/embed/xGwmQ1wzd0Y"
 },
 {
   "Name": "Eger",
   "Timezone": "GMT + 2",
   "Country": "Hungary",
   "Latitude": 47.9027,
   "Longitude": 20.3733,
   "URL": "https://www.youtube.com/embed/IELAhyaUKVk"
 },
 {
   "Name": "Stary Sacz",
   "Timezone": "GMT + 2",
   "Country": "Poland",
   "Latitude": 49.5640268,
   "Longitude": 20.6366235,
   "URL": "https://www.youtube.com/embed/fGAiiIEXz0U"
 },
 {
   "Name": "Moara Vlasiei",
   "Timezone": "GMT + 3",
   "Country": "Romania",
   "Latitude": 44.639707,
   "Longitude": 26.22136,
   "URL": "https://www.youtube.com/embed/fK6hrMr7-k4"
 },
 {
   "Name": "Shymbulak",
   "Timezone": "GMT + 5",
   "Country": "Kazakhstan",
   "Latitude": 42.69575,
   "Longitude": 70.70751,
   "URL": "https://www.youtube.com/embed/lw1qn9YlAew"
 },
 {
   "Name": "Akureyri Icelandic Brewery White Ale",
   "Timezone": "GMT + 0",
   "Country": "Iceland",
   "Latitude": 64.14721,
   "Longitude": -21.9424,
   "URL": "https://www.youtube.com/embed/34KrXyDCbZo"
 }
]